City_ID,City,Lat,Lng,Max Temp,Humidity,Cloudiness,Wind Speed,Country,Date,Weather Description,Rain in inches (last 3 hrs),Snow in inches (last 3 hrs)
0,Provideniya,64.38,-173.3,-8.21,88,0,13.87,RU,2020-03-01 18:16:30,clear sky,0.0,0.0
1,Belyy Yar,53.6,91.39,14.0,92,8,2.24,RU,2020-03-01 18:16:30,clear sky,0.0,0.0
2,Siwana,25.63,72.42,72.95,32,0,9.4,IN,2020-03-01 18:16:30,clear sky,0.0,0.0
3,Bluff,-46.6,168.33,51.01,93,56,4.56,NZ,2020-03-01 18:13:32,broken clouds,0.0,0.0
4,Dingle,11.0,122.67,72.41,85,0,11.39,PH,2020-03-01 18:16:31,clear sky,0.0,0.0
5,Northam,51.03,-4.22,45.0,75,40,8.05,GB,2020-03-01 18:16:31,scattered clouds,0.0,0.0
6,Shenxian,36.24,115.67,42.78,34,100,4.72,CN,2020-03-01 18:16:31,overcast clouds,0.0,0.0
7,Bud,39.45,-86.18,57.99,43,75,18.34,US,2020-03-01 18:16:31,broken clouds,0.0,0.0
8,Ancud,-41.87,-73.82,73.4,49,0,8.05,CL,2020-03-01 18:16:32,clear sky,0.0,0.0
9,Busselton,-33.65,115.33,61.0,39,0,15.01,AU,2020-03-01 18:13:51,clear sky,0.0,0.0
10,Arraial Do Cabo,-22.97,-42.03,75.2,83,40,12.75,BR,2020-03-01 18:16:32,scattered clouds,0.0,0.0
11,Morondava,-20.28,44.28,78.19,76,15,4.81,MG,2020-03-01 18:16:32,few clouds,0.0,0.0
12,Santa Cruz Del Sur,20.71,-78.0,75.88,60,0,22.15,CU,2020-03-01 18:13:29,clear sky,0.0,0.0
13,Henties Bay,-22.12,14.28,69.48,72,7,8.59,NA,2020-03-01 18:16:33,clear sky,0.0,0.0
14,Sorgun,39.81,35.19,36.14,70,100,4.76,TR,2020-03-01 18:16:33,overcast clouds,0.0,0.0
15,Egvekinot,66.32,-179.17,-9.99,79,0,5.28,RU,2020-03-01 18:12:59,clear sky,0.0,0.0
16,Tuatapere,-46.13,167.68,51.01,93,38,3.22,NZ,2020-03-01 18:16:33,scattered clouds,0.0,0.0
17,Aklavik,68.22,-135.01,-18.4,75,75,6.93,CA,2020-03-01 18:16:33,broken clouds,0.0,0.0
18,Palmer,42.16,-72.33,36.0,30,20,18.34,US,2020-03-01 18:16:33,few clouds,0.0,0.0
19,Albany,42.6,-73.97,36.0,34,20,12.75,US,2020-03-01 18:16:34,few clouds,0.0,0.0
20,Rikitea,-23.12,-134.97,80.19,80,100,12.1,PF,2020-03-01 18:16:34,light rain,1.69,0.0
21,Vaini,-21.2,-175.2,78.8,88,20,6.93,TO,2020-03-01 18:13:32,few clouds,0.0,0.0
22,Hobart,-42.88,147.33,53.6,87,75,10.29,AU,2020-03-01 18:11:49,moderate rain,0.0,0.0
23,Los Llanos De Aridane,28.66,-17.92,68.0,72,75,8.05,ES,2020-03-01 18:16:35,broken clouds,0.0,0.0
24,Atuona,-9.8,-139.03,82.0,77,36,18.79,PF,2020-03-01 18:16:35,scattered clouds,0.0,0.0
25,Puerto Ayora,-0.74,-90.35,87.8,62,20,14.99,EC,2020-03-01 18:16:35,few clouds,0.0,0.0
26,Kaitangata,-46.28,169.85,57.0,89,67,1.99,NZ,2020-03-01 18:16:35,broken clouds,0.0,0.0
27,Gamba,-2.65,10.0,80.11,81,42,9.13,GA,2020-03-01 18:16:35,scattered clouds,0.0,0.0
28,Stornoway,58.21,-6.39,41.0,86,75,5.82,GB,2020-03-01 18:16:35,moderate rain,0.0,0.0
29,Lima,-12.04,-77.03,80.6,65,53,14.99,PE,2020-03-01 18:12:44,broken clouds,0.0,0.0
30,Mitoc,48.1,27.03,48.0,65,66,9.17,RO,2020-03-01 18:14:54,broken clouds,0.0,0.0
31,New Norfolk,-42.78,147.06,53.6,87,75,10.29,AU,2020-03-01 18:16:36,moderate rain,0.0,0.0
32,Cape Town,-33.93,18.42,72.0,88,49,19.46,ZA,2020-03-01 18:12:31,scattered clouds,0.0,0.0
33,Berlevag,70.86,29.09,23.0,73,75,4.7,NO,2020-03-01 18:16:22,broken clouds,0.0,0.0
34,Luis Correia,-2.88,-41.67,87.8,70,40,11.41,BR,2020-03-01 18:16:36,scattered clouds,0.0,0.0
35,Mataura,-46.19,168.86,51.01,93,56,1.99,NZ,2020-03-01 18:16:36,broken clouds,0.0,0.0
36,Yellowknife,62.46,-114.35,-11.99,74,75,9.17,CA,2020-03-01 18:13:26,broken clouds,0.0,0.0
37,Jamestown,42.1,-79.24,39.0,47,1,9.17,US,2020-03-01 18:16:37,clear sky,0.0,0.0
38,Kuala Terengganu,5.33,103.14,74.68,86,74,2.42,MY,2020-03-01 18:16:37,broken clouds,0.0,0.0
39,Tiarei,-17.53,-149.33,78.01,94,75,25.28,PF,2020-03-01 18:16:37,heavy intensity rain,0.0,0.0
40,Puerto Escondido,15.85,-97.07,86.0,84,5,5.82,MX,2020-03-01 18:16:38,clear sky,0.0,0.0
41,Amga,60.9,131.96,-7.1,100,61,0.63,RU,2020-03-01 18:16:38,broken clouds,0.0,0.0
42,Georgetown,5.41,100.34,84.2,79,20,2.24,MY,2020-03-01 18:13:22,few clouds,0.0,0.0
43,Varkaus,62.32,27.87,32.0,97,90,10.29,FI,2020-03-01 18:16:39,light snow,0.0,0.0
44,Samarai,-10.62,150.67,76.75,84,86,2.98,PG,2020-03-01 18:16:39,overcast clouds,0.0,0.0
45,Saskylakh,71.92,114.08,5.79,76,97,12.08,RU,2020-03-01 18:12:58,overcast clouds,0.0,0.0
46,Providencia,28.72,-111.58,75.99,35,80,1.01,MX,2020-03-01 18:16:39,broken clouds,0.0,0.0
47,Kolokani,13.57,-8.03,93.96,5,0,5.66,ML,2020-03-01 18:16:40,clear sky,0.0,0.0
48,Rameswaram,9.28,79.3,80.29,74,93,19.15,IN,2020-03-01 18:12:59,overcast clouds,0.0,0.0
49,Saldanha,-33.01,17.94,62.6,82,5,14.99,ZA,2020-03-01 18:16:41,clear sky,0.0,0.0
50,Kahului,20.89,-156.47,66.2,72,40,17.22,US,2020-03-01 18:16:41,scattered clouds,0.0,0.0
51,Siniscola,40.57,9.69,50.81,65,39,16.06,IT,2020-03-01 18:16:41,scattered clouds,0.0,0.0
52,East London,-33.02,27.91,71.6,78,0,11.41,ZA,2020-03-01 18:16:41,clear sky,0.0,0.0
53,Qaqortoq,60.72,-46.03,8.6,46,0,2.24,GL,2020-03-01 18:16:41,clear sky,0.0,0.0
54,Tezu,27.92,96.17,62.71,42,7,4.81,IN,2020-03-01 18:16:42,clear sky,0.0,0.0
55,Punta Arenas,-53.15,-70.92,64.4,45,40,14.99,CL,2020-03-01 18:16:42,scattered clouds,0.0,0.0
56,Roald,62.58,6.13,37.0,69,99,20.8,NO,2020-03-01 18:12:47,light snow,0.0,0.13
57,Podosinovets,60.28,47.07,26.51,90,68,9.69,RU,2020-03-01 18:16:42,broken clouds,0.0,0.0
58,Lakes Entrance,-37.88,147.98,64.99,77,62,11.36,AU,2020-03-01 18:16:42,broken clouds,0.0,0.0
59,Caravelas,-17.71,-39.25,82.24,69,63,8.84,BR,2020-03-01 18:16:43,broken clouds,0.0,0.0
60,Souillac,-20.52,57.52,80.6,88,40,4.47,MU,2020-03-01 18:16:43,scattered clouds,0.0,0.0
61,Jalu,29.03,21.55,65.41,30,0,7.92,LY,2020-03-01 18:16:43,clear sky,0.0,0.0
62,Ciudad Bolivar,8.12,-63.55,95.32,32,68,9.08,VE,2020-03-01 18:16:43,broken clouds,0.0,0.0
63,Cabedelo,-6.98,-34.83,84.2,74,75,13.87,BR,2020-03-01 18:16:43,broken clouds,0.0,0.0
64,Lewistown,40.6,-77.57,44.01,32,1,11.41,US,2020-03-01 18:16:44,clear sky,0.0,0.0
65,Tondano,1.3,124.91,77.0,100,40,2.24,ID,2020-03-01 18:16:44,scattered clouds,0.0,0.0
66,Lompoc,34.64,-120.46,57.2,54,40,13.87,US,2020-03-01 18:16:44,scattered clouds,0.0,0.0
67,Tuktoyaktuk,69.45,-133.04,-27.4,74,75,5.82,CA,2020-03-01 18:16:44,broken clouds,0.0,0.0
68,Bredasdorp,-34.53,20.04,70.0,77,40,8.05,ZA,2020-03-01 18:16:44,scattered clouds,0.0,0.0
69,Ushuaia,-54.8,-68.3,55.4,54,40,17.22,AR,2020-03-01 18:16:44,scattered clouds,0.0,0.0
70,Nanortalik,60.14,-45.24,20.77,57,0,34.25,GL,2020-03-01 18:16:44,clear sky,0.0,0.0
71,Kununurra,-15.77,128.73,78.8,94,90,9.17,AU,2020-03-01 18:13:33,overcast clouds,0.0,0.0
72,Kapaa,22.08,-159.32,69.8,83,75,18.34,US,2020-03-01 18:16:45,heavy intensity rain,0.0,0.0
73,Richards Bay,-28.78,32.04,74.23,68,33,18.59,ZA,2020-03-01 18:16:45,scattered clouds,0.0,0.0
74,Gulf Gate Estates,27.25,-82.51,73.0,26,1,10.29,US,2020-03-01 18:16:45,clear sky,0.0,0.0
75,Saint-Augustin,51.23,-58.65,18.37,89,40,12.12,CA,2020-03-01 18:16:45,scattered clouds,0.0,0.0
76,Riachao,-7.36,-46.62,89.13,55,15,2.95,BR,2020-03-01 18:16:45,light rain,0.25,0.0
77,Shellbrook,53.22,-106.4,10.4,72,20,13.87,CA,2020-03-01 18:16:45,few clouds,0.0,0.0
78,Divo,5.84,-5.36,91.33,45,8,6.24,CI,2020-03-01 18:16:46,clear sky,0.0,0.0
79,Tiksi,71.69,128.87,-6.54,88,0,11.48,RU,2020-03-01 18:16:46,clear sky,0.0,0.0
80,Denpasar,-8.65,115.22,78.8,100,20,5.82,ID,2020-03-01 18:15:29,few clouds,0.0,0.0
81,Kavieng,-2.57,150.8,83.7,72,43,1.41,PG,2020-03-01 18:16:46,moderate rain,4.31,0.0
82,Mandera,3.94,41.87,84.0,15,56,1.01,KE,2020-03-01 18:12:01,broken clouds,0.0,0.0
83,Esperance,-33.87,121.9,60.8,67,90,8.05,AU,2020-03-01 18:13:33,overcast clouds,0.0,0.0
84,Port Elizabeth,-33.92,25.57,71.6,73,0,20.8,ZA,2020-03-01 18:15:03,clear sky,0.0,0.0
85,Painesville,41.72,-81.25,44.01,32,40,6.93,US,2020-03-01 18:16:48,scattered clouds,0.0,0.0
86,Smila,49.22,31.89,40.86,63,99,18.52,UA,2020-03-01 18:16:48,overcast clouds,0.0,0.0
87,Talnakh,69.49,88.4,17.6,92,90,46.98,RU,2020-03-01 18:16:48,overcast clouds,0.0,0.0
88,Komsomolskiy,40.43,71.72,50.0,81,0,4.7,UZ,2020-03-01 18:16:49,mist,0.0,0.0
89,Castro,-24.79,-50.01,71.35,83,19,3.6,BR,2020-03-01 18:16:49,light rain,2.38,0.0
90,Qaanaaq,77.48,-69.36,-23.75,61,31,7.27,GL,2020-03-01 18:16:49,scattered clouds,0.0,0.0
91,Kargil,34.57,76.1,0.23,91,0,3.49,IN,2020-03-01 18:16:49,clear sky,0.0,0.0
92,Qena,26.16,32.72,68.0,40,0,5.82,EG,2020-03-01 18:16:49,clear sky,0.0,0.0
93,Necochea,-38.55,-58.74,82.94,48,0,15.37,AR,2020-03-01 18:16:50,clear sky,0.0,0.0
94,Mount Isa,-20.73,139.5,80.6,74,98,6.93,AU,2020-03-01 18:13:33,overcast clouds,0.0,0.0
95,Saint-Pierre,-21.34,55.48,80.6,88,40,3.36,RE,2020-03-01 18:16:50,scattered clouds,0.0,0.0
96,Kirakira,-10.45,161.92,78.58,80,17,2.62,SB,2020-03-01 18:16:50,few clouds,0.0,0.0
97,Bar Harbor,44.39,-68.2,32.0,50,75,10.29,US,2020-03-01 18:16:50,broken clouds,0.0,0.0
98,Sur,22.57,59.53,69.35,66,0,5.84,OM,2020-03-01 18:13:07,clear sky,0.0,0.0
99,Dikson,73.51,80.55,21.97,92,100,29.39,RU,2020-03-01 18:12:58,light snow,0.0,1.06
100,Meulaboh,4.14,96.13,85.5,69,75,2.68,ID,2020-03-01 18:16:51,broken clouds,0.0,0.0
101,Milove,49.38,40.13,34.39,71,24,8.16,UA,2020-03-01 18:16:51,few clouds,0.0,0.0
102,San Policarpo,12.18,125.51,76.86,81,9,9.42,PH,2020-03-01 18:16:52,light rain,0.13,0.0
103,Hilo,19.73,-155.09,66.99,88,20,8.05,US,2020-03-01 18:13:32,moderate rain,0.0,0.0
104,Mar Del Plata,-38.0,-57.56,80.6,69,0,13.87,AR,2020-03-01 18:16:52,clear sky,0.0,0.0
105,Vestmannaeyjar,63.44,-20.27,39.2,76,75,51.67,IS,2020-03-01 18:16:52,moderate rain,0.0,0.0
106,Pangody,65.85,74.49,17.53,89,79,11.88,RU,2020-03-01 18:16:53,broken clouds,0.0,0.0
107,Grand-Santi,4.25,-54.38,94.28,38,100,4.0,GF,2020-03-01 18:16:53,overcast clouds,0.0,0.0
108,Aviles,43.55,-5.92,63.0,51,40,13.87,ES,2020-03-01 18:16:53,scattered clouds,0.0,0.0
109,Saint-Philippe,-21.36,55.77,80.6,88,40,3.36,RE,2020-03-01 18:16:53,scattered clouds,0.0,0.0
110,Geraldton,-28.77,114.6,77.0,57,88,20.8,AU,2020-03-01 18:16:53,overcast clouds,0.0,0.0
111,Durant,33.99,-96.37,70.0,60,90,25.28,US,2020-03-01 18:14:21,overcast clouds,0.0,0.0
112,Luderitz,-26.65,15.16,71.6,78,6,9.17,NA,2020-03-01 18:16:54,clear sky,0.0,0.0
113,Clovis,36.83,-119.7,55.4,50,75,9.17,US,2020-03-01 18:14:08,broken clouds,0.0,0.0
114,Bethel,41.37,-73.41,41.0,18,1,17.22,US,2020-03-01 18:16:54,clear sky,0.0,0.0
115,Witu,-2.39,40.44,82.33,82,77,10.76,KE,2020-03-01 18:12:01,broken clouds,0.0,0.0
116,Carnarvon,-24.87,113.63,78.8,88,0,10.29,AU,2020-03-01 18:16:54,clear sky,0.0,0.0
117,New Smyrna Beach,29.03,-80.93,72.0,30,1,5.82,US,2020-03-01 18:16:54,clear sky,0.0,0.0
118,Nikolskoye,59.7,30.79,37.4,86,40,8.95,RU,2020-03-01 18:16:54,scattered clouds,0.0,0.0
119,Viedma,-40.81,-63.0,98.53,12,0,12.12,AR,2020-03-01 18:13:31,clear sky,0.0,0.0
120,Lastoursville,-0.81,12.73,76.19,90,87,2.48,GA,2020-03-01 18:16:55,light rain,0.81,0.0
121,Sibolga,1.74,98.78,73.0,94,100,2.93,ID,2020-03-01 18:16:55,light rain,0.13,0.0
122,Norman Wells,65.28,-126.83,-5.8,76,90,8.05,CA,2020-03-01 18:16:55,overcast clouds,0.0,0.0
123,Portoferraio,42.81,10.31,59.0,76,40,12.75,IT,2020-03-01 18:16:55,scattered clouds,0.0,0.0
124,Oksfjord,70.24,22.35,23.0,85,75,20.8,NO,2020-03-01 18:16:55,shower rain,0.0,0.0
125,Jambusar,22.05,72.8,75.0,49,0,6.89,IN,2020-03-01 18:15:01,clear sky,0.0,0.0
126,Huarmey,-10.07,-78.15,82.67,54,56,11.14,PE,2020-03-01 18:16:56,broken clouds,0.0,0.0
127,Singaparna,-7.35,108.11,72.0,94,100,1.23,ID,2020-03-01 18:16:56,light rain,2.0,0.0
128,Tual,-5.67,132.75,82.36,76,83,2.98,ID,2020-03-01 18:13:35,broken clouds,0.0,0.0
129,Mahebourg,-20.41,57.7,80.6,88,40,4.47,MU,2020-03-01 18:13:18,scattered clouds,0.0,0.0
130,Buala,-8.14,159.59,81.91,77,35,5.19,SB,2020-03-01 18:16:57,light rain,0.56,0.0
131,Vardo,70.37,31.11,24.8,79,40,10.29,NO,2020-03-01 18:12:46,scattered clouds,0.0,0.0
132,Eyl,7.98,49.82,77.49,79,0,19.37,SO,2020-03-01 18:16:58,clear sky,0.0,0.0
133,Galdar,28.15,-15.65,68.0,68,20,23.04,ES,2020-03-01 18:16:58,few clouds,0.0,0.0
134,Hermanus,-34.42,19.23,72.0,81,50,4.0,ZA,2020-03-01 18:13:20,scattered clouds,0.0,0.0
135,Cidreira,-30.18,-50.21,74.52,66,0,11.59,BR,2020-03-01 18:16:58,clear sky,0.0,0.0
136,Port Alfred,-33.59,26.89,72.12,78,0,19.6,ZA,2020-03-01 18:16:58,clear sky,0.0,0.0
137,Lagoa,39.05,-27.98,63.54,86,99,24.45,PT,2020-03-01 18:16:58,light rain,0.38,0.0
138,Hamilton,39.18,-84.53,55.99,32,1,11.41,US,2020-03-01 18:16:58,clear sky,0.0,0.0
139,Porto Tolle,44.95,12.32,48.2,93,100,2.24,IT,2020-03-01 18:16:59,light rain,1.69,0.0
140,Jember,-8.17,113.7,68.7,85,100,2.24,ID,2020-03-01 18:16:59,light rain,0.19,0.0
141,Okhotsk,59.38,143.3,3.25,63,0,4.38,RU,2020-03-01 18:16:59,clear sky,0.0,0.0
142,Kalat,29.02,66.59,48.97,36,0,0.89,PK,2020-03-01 18:13:08,clear sky,0.0,0.0
143,Campos Do Jordao,-22.74,-45.59,77.0,69,75,14.99,BR,2020-03-01 18:16:59,broken clouds,0.0,0.0
144,Cherskiy,68.75,161.3,-9.42,91,15,9.78,RU,2020-03-01 18:16:59,few clouds,0.0,0.0
145,College,64.86,-147.8,10.99,77,75,5.03,US,2020-03-01 18:13:21,light snow,0.0,0.0
146,Butaritari,3.07,172.79,83.16,80,69,21.0,KI,2020-03-01 18:17:00,light rain,0.19,0.0
147,Ginir,7.13,40.7,66.36,35,22,0.89,ET,2020-03-01 18:12:22,few clouds,0.0,0.0
148,El Alto,-4.27,-81.21,62.6,100,40,9.17,PE,2020-03-01 18:17:01,scattered clouds,0.0,0.0
149,Yulara,-25.24,130.99,73.4,73,90,11.14,AU,2020-03-01 18:13:33,overcast clouds,0.0,0.0
150,Bitterfeld,51.62,12.32,46.0,80,53,6.93,DE,2020-03-01 18:17:01,broken clouds,0.0,0.0
151,Te Anau,-45.42,167.72,50.5,53,34,1.81,NZ,2020-03-01 18:13:32,scattered clouds,0.0,0.0
152,Harper,4.38,-7.72,79.75,91,79,4.85,LR,2020-03-01 18:17:02,moderate rain,4.94,0.0
153,Thompson,55.74,-97.86,17.6,92,90,10.29,CA,2020-03-01 18:17:02,light snow,0.0,0.0
154,Sakaraha,-22.9,44.53,68.13,70,14,14.85,MG,2020-03-01 18:17:02,few clouds,0.0,0.0
155,Beringovskiy,63.05,179.32,-5.64,86,0,8.86,RU,2020-03-01 18:17:03,clear sky,0.0,0.0
156,Kuusamo,65.97,29.18,15.8,92,90,4.7,FI,2020-03-01 18:17:03,light shower snow,0.0,0.0
157,Chuy,-33.7,-53.46,83.43,42,0,10.16,UY,2020-03-01 18:17:03,clear sky,0.0,0.0
158,Marzuq,14.4,46.47,68.16,53,0,4.41,YE,2020-03-01 18:17:03,clear sky,0.0,0.0
159,Marsa Matruh,31.35,27.25,57.2,62,0,8.05,EG,2020-03-01 18:17:03,clear sky,0.0,0.0
160,Labuhan,-6.88,112.21,75.16,94,100,3.15,ID,2020-03-01 18:17:03,overcast clouds,0.0,0.0
161,Malindi,-3.22,40.12,86.0,79,40,11.41,KE,2020-03-01 18:17:04,scattered clouds,0.0,0.0
162,Torbay,47.67,-52.73,28.99,73,90,17.22,CA,2020-03-01 18:17:04,overcast clouds,0.0,0.0
163,Avenal,36.0,-120.13,55.4,43,75,3.36,US,2020-03-01 18:17:04,broken clouds,0.0,0.0
164,Rawson,-43.3,-65.1,70.36,57,18,16.31,AR,2020-03-01 18:17:04,few clouds,0.0,0.0
165,Mundo Nuevo,18.7,-95.5,77.36,63,0,2.37,MX,2020-03-01 18:17:04,clear sky,0.0,0.0
166,Ribeira Grande,38.52,-28.7,64.4,88,40,19.46,PT,2020-03-01 18:17:05,scattered clouds,0.0,0.0
167,Boshnyakovo,49.63,142.17,9.32,95,74,4.47,RU,2020-03-01 18:13:03,broken clouds,0.0,0.0
168,Viseu,40.66,-7.91,61.0,100,75,14.99,PT,2020-03-01 18:17:05,light intensity drizzle rain,0.0,0.0
169,Prince Rupert,54.32,-130.32,35.6,93,90,16.11,CA,2020-03-01 18:13:22,light rain,0.0,0.0
170,Avera,33.19,-82.53,64.99,30,1,5.97,US,2020-03-01 18:17:05,clear sky,0.0,0.0
171,Lamont,35.26,-118.91,55.99,45,1,4.7,US,2020-03-01 18:17:05,clear sky,0.0,0.0
172,Hirara,24.8,125.28,67.77,85,78,24.36,JP,2020-03-01 18:17:03,light rain,0.13,0.0
173,Cabo San Lucas,22.89,-109.91,82.0,44,5,8.05,MX,2020-03-01 18:17:06,clear sky,0.0,0.0
174,Avarua,-21.21,-159.78,80.6,88,52,4.7,CK,2020-03-01 18:17:06,light rain,1.06,0.0
175,Illapel,-31.63,-71.17,78.76,35,0,10.98,CL,2020-03-01 18:17:06,clear sky,0.0,0.0
176,Guerrero Negro,27.98,-114.06,63.57,64,100,12.86,MX,2020-03-01 18:17:06,overcast clouds,0.0,0.0
177,Vostok,46.49,135.88,12.4,94,100,2.77,RU,2020-03-01 18:17:06,overcast clouds,0.0,0.0
178,Kurtamysh,54.91,64.43,24.04,93,100,6.91,RU,2020-03-01 18:17:07,overcast clouds,0.0,0.0
179,Yar-Sale,66.83,70.83,15.66,91,36,14.2,RU,2020-03-01 18:17:07,scattered clouds,0.0,0.0
180,Westport,41.14,-73.36,42.01,18,1,17.22,US,2020-03-01 18:17:07,clear sky,0.0,0.0
181,Zuwarah,32.93,12.08,69.89,37,78,9.48,LY,2020-03-01 18:17:07,broken clouds,0.0,0.0
182,Quelimane,-17.88,36.89,77.74,72,72,13.53,MZ,2020-03-01 18:16:57,light rain,0.13,0.0
183,Pangnirtung,66.15,-65.71,-23.8,67,5,2.24,CA,2020-03-01 18:17:07,clear sky,0.0,0.0
184,Pevek,69.7,170.31,-4.45,99,100,4.36,RU,2020-03-01 18:17:08,light snow,0.0,0.25
185,Kodiak,57.79,-152.41,37.4,69,75,11.41,US,2020-03-01 18:13:18,broken clouds,0.0,0.0
186,Maryville,35.76,-83.97,57.99,37,90,5.86,US,2020-03-01 18:17:08,overcast clouds,0.0,0.0
187,Santa Isabel Do Rio Negro,-0.41,-65.02,92.62,47,66,2.3,BR,2020-03-01 18:17:08,broken clouds,0.0,0.0
188,Hami,42.8,93.45,32.94,47,0,2.95,CN,2020-03-01 18:15:52,clear sky,0.0,0.0
189,Ndele,8.41,20.65,87.26,13,81,5.01,CF,2020-03-01 18:17:08,broken clouds,0.0,0.0
190,Mayo,38.89,-76.51,48.0,30,1,6.93,US,2020-03-01 18:17:09,clear sky,0.0,0.0
191,Narsaq,60.92,-46.05,8.6,46,0,2.24,GL,2020-03-01 18:17:09,clear sky,0.0,0.0
192,Voyinka,45.87,33.99,40.21,67,45,9.46,UA,2020-03-01 18:15:09,scattered clouds,0.0,0.0
193,Jiayuguan,39.82,98.3,31.55,38,0,8.55,CN,2020-03-01 18:14:24,clear sky,0.0,0.0
194,Iqaluit,63.75,-68.51,-14.01,68,5,14.99,CA,2020-03-01 18:17:09,clear sky,0.0,0.0
195,Korla,41.76,86.15,46.0,62,0,7.0,CN,2020-03-01 18:13:13,clear sky,0.0,0.0
196,Ust-Maya,60.42,134.53,-6.99,98,1,0.6,RU,2020-03-01 18:17:10,clear sky,0.0,0.0
197,Lattes,43.57,3.9,55.0,81,35,5.82,FR,2020-03-01 18:17:10,light rain,0.44,0.0
198,Bambous Virieux,-20.34,57.76,80.6,88,40,6.4,MU,2020-03-01 18:17:10,scattered clouds,0.0,0.0
199,Flinders,-34.58,150.86,72.0,68,67,5.82,AU,2020-03-01 18:17:10,broken clouds,0.0,0.0
200,Isagarh,24.83,77.88,67.32,53,8,7.83,IN,2020-03-01 18:17:11,clear sky,0.0,0.0
201,Svetlyy,54.67,20.13,46.4,65,90,6.71,RU,2020-03-01 18:13:08,overcast clouds,0.0,0.0
202,Sechura,-5.56,-80.82,75.58,86,100,10.8,PE,2020-03-01 18:17:12,overcast clouds,0.0,0.0
203,Sangueya,10.7,-14.37,84.31,59,71,12.97,GN,2020-03-01 18:17:12,broken clouds,0.0,0.0
204,Ahipara,-35.17,173.17,70.0,100,100,11.74,NZ,2020-03-01 18:17:12,light rain,0.13,0.0
205,Yining,29.04,114.56,46.36,92,0,3.76,CN,2020-03-01 18:17:12,clear sky,0.0,0.0
206,Isangel,-19.55,169.27,78.57,84,97,9.89,VU,2020-03-01 18:13:32,overcast clouds,0.0,0.0
207,Nome,64.5,-165.41,3.2,59,1,13.87,US,2020-03-01 18:17:13,clear sky,0.0,0.0
208,Huicungo,-7.28,-76.8,65.46,98,100,0.69,PE,2020-03-01 18:17:13,moderate rain,11.63,0.0
209,San Patricio,19.22,-104.7,82.4,74,5,6.93,MX,2020-03-01 18:17:13,clear sky,0.0,0.0
210,Autazes,-3.58,-59.13,90.86,53,97,2.89,BR,2020-03-01 18:17:13,overcast clouds,0.0,0.0
211,Athabasca,54.72,-113.29,15.73,90,12,11.79,CA,2020-03-01 18:17:13,few clouds,0.0,0.0
212,Madang,-5.22,145.8,77.95,93,100,19.51,PG,2020-03-01 18:17:13,heavy intensity rain,20.5,0.0
213,Revelstoke,50.98,-118.2,32.0,93,40,2.8,CA,2020-03-01 18:13:26,scattered clouds,0.0,0.0
214,Hithadhoo,-0.6,73.08,83.07,76,27,9.62,MV,2020-03-01 18:17:14,scattered clouds,0.0,0.0
215,Meybod,32.25,54.02,69.8,35,40,16.11,IR,2020-03-01 18:17:14,scattered clouds,0.0,0.0
216,Leningradskiy,69.38,178.42,-1.5,86,100,18.88,RU,2020-03-01 18:17:14,overcast clouds,0.0,0.0
217,Ulety,51.36,112.48,4.78,86,24,2.66,RU,2020-03-01 18:17:14,few clouds,0.0,0.0
218,Moose Factory,51.26,-80.61,15.8,47,1,10.29,CA,2020-03-01 18:17:14,clear sky,0.0,0.0
219,Biak,-0.91,122.88,83.73,73,65,7.72,ID,2020-03-01 18:17:14,broken clouds,0.0,0.0
220,Hirado,33.36,129.55,55.4,71,90,13.87,JP,2020-03-01 18:17:15,overcast clouds,0.0,0.0
221,Byron Bay,-28.65,153.62,72.0,88,42,6.93,AU,2020-03-01 18:15:00,scattered clouds,0.0,0.0
222,Trairi,-3.28,-39.27,82.18,82,95,5.01,BR,2020-03-01 18:17:15,moderate rain,4.44,0.0
223,Chimbote,-9.09,-78.58,80.96,60,100,11.12,PE,2020-03-01 18:17:15,overcast clouds,0.0,0.0
224,Tazovskiy,67.47,78.7,22.95,85,100,16.49,RU,2020-03-01 18:17:15,overcast clouds,0.0,0.0
225,Najran,17.49,44.13,82.4,24,0,6.93,SA,2020-03-01 18:17:15,clear sky,0.0,0.0
226,Berdigestyakh,62.1,126.7,-11.38,99,28,2.28,RU,2020-03-01 18:12:59,scattered clouds,0.0,0.0
227,Oltu,40.55,42.0,24.37,96,100,4.25,TR,2020-03-01 18:17:16,light snow,0.0,0.44
228,Teya,60.38,92.63,5.54,94,54,5.61,RU,2020-03-01 18:17:16,broken clouds,0.0,0.0
229,Barrow,71.29,-156.79,-20.2,68,1,12.75,US,2020-03-01 18:17:16,haze,0.0,0.0
230,Yaan,7.38,8.57,94.41,30,100,5.79,NG,2020-03-01 18:17:16,overcast clouds,0.0,0.0
231,Sitka,57.05,-135.33,39.2,86,90,16.11,US,2020-03-01 18:17:16,moderate rain,0.0,0.0
232,Altay,47.87,88.12,18.79,29,48,3.94,CN,2020-03-01 18:17:16,scattered clouds,0.0,0.0
233,Khatanga,71.97,102.5,7.77,77,100,12.37,RU,2020-03-01 18:17:16,overcast clouds,0.0,0.0
234,Alugan,12.22,125.48,76.86,81,9,9.42,PH,2020-03-01 18:17:17,light rain,0.13,0.0
235,Chiang Klang,19.29,100.86,67.87,54,7,2.17,TH,2020-03-01 18:17:17,clear sky,0.0,0.0
236,Namibe,-15.2,12.15,75.38,80,4,14.34,AO,2020-03-01 18:17:17,clear sky,0.0,0.0
237,Tamasane,-22.42,27.4,69.8,68,78,6.93,BW,2020-03-01 18:17:17,broken clouds,0.0,0.0
238,Fortuna,40.6,-124.16,50.0,47,1,17.22,US,2020-03-01 18:17:18,clear sky,0.0,0.0
239,Roma,43.21,-75.46,35.01,54,1,14.99,US,2020-03-01 18:15:56,clear sky,0.0,0.0
240,Naze,28.37,129.48,68.0,88,75,12.75,JP,2020-03-01 18:13:11,broken clouds,0.0,0.0
241,Kavaratti,10.57,72.64,83.79,66,37,2.59,IN,2020-03-01 18:17:18,scattered clouds,0.0,0.0
242,Hofn,64.25,-15.21,37.4,64,90,25.28,IS,2020-03-01 18:17:18,light intensity shower rain,0.0,0.0
243,Awbari,26.59,12.78,68.79,18,26,9.13,LY,2020-03-01 18:17:18,scattered clouds,0.0,0.0
244,Camabatela,-8.19,15.38,67.42,93,77,3.53,AO,2020-03-01 18:17:18,moderate rain,3.19,0.0
245,Cairns,-16.92,145.77,78.8,78,75,5.82,AU,2020-03-01 18:17:18,broken clouds,0.0,0.0
246,Kontagora,10.4,5.47,91.69,19,99,0.69,NG,2020-03-01 18:17:19,overcast clouds,0.0,0.0
247,Itarema,-2.92,-39.92,83.62,75,100,7.61,BR,2020-03-01 18:17:19,light rain,2.56,0.0
248,Vila Franca Do Campo,37.72,-25.43,64.4,82,40,23.04,PT,2020-03-01 18:17:19,scattered clouds,0.0,0.0
249,Fatsa,41.03,37.5,44.6,75,75,2.24,TR,2020-03-01 18:15:42,broken clouds,0.0,0.0
250,Talcahuano,-36.72,-73.12,60.8,82,90,9.17,CL,2020-03-01 18:17:19,overcast clouds,0.0,0.0
251,Grindavik,63.84,-22.43,37.4,80,90,32.21,IS,2020-03-01 18:17:19,overcast clouds,0.0,0.0
252,Mogadishu,2.04,45.34,81.12,78,86,22.53,SO,2020-03-01 18:17:19,overcast clouds,0.0,0.0
253,Kemin,42.78,75.69,40.21,30,0,5.99,KG,2020-03-01 18:17:20,clear sky,0.0,0.0
254,Comodoro Rivadavia,-45.87,-67.5,80.6,36,21,9.17,AR,2020-03-01 18:17:20,few clouds,0.0,0.0
255,Ocampo,21.65,-101.5,73.53,21,0,15.93,MX,2020-03-01 18:17:20,clear sky,0.0,0.0
256,Bereda,43.27,-7.54,52.0,93,40,3.36,ES,2020-03-01 18:17:20,moderate rain,0.0,0.0
257,Russell,32.35,-85.2,66.99,31,75,6.93,US,2020-03-01 18:17:20,broken clouds,0.0,0.0
258,Dawei,14.08,98.2,80.1,67,26,5.44,MM,2020-03-01 18:13:11,scattered clouds,0.0,0.0
259,Ponta Delgada,37.73,-25.67,64.4,82,40,23.04,PT,2020-03-01 18:17:21,scattered clouds,0.0,0.0
260,Abu Samrah,35.3,37.18,48.67,80,1,15.35,SY,2020-03-01 18:17:21,clear sky,0.0,0.0
261,Atasu,48.68,71.64,23.47,71,100,5.01,KZ,2020-03-01 18:17:21,overcast clouds,0.0,0.0
262,Coihaique,-45.58,-72.07,73.4,40,41,4.7,CL,2020-03-01 18:16:14,scattered clouds,0.0,0.0
263,Bondoukou,8.03,-2.8,94.08,23,0,3.13,CI,2020-03-01 18:17:21,clear sky,0.0,0.0
264,Kungsbacka,57.49,12.08,43.0,93,90,16.11,SE,2020-03-01 18:17:22,overcast clouds,0.0,0.0
265,Ossora,59.24,163.07,-4.22,81,0,2.71,RU,2020-03-01 18:17:22,clear sky,0.0,0.0
266,Ranot,7.78,100.32,80.56,74,65,9.71,TH,2020-03-01 18:17:22,broken clouds,0.0,0.0
267,Ampere,-25.91,-53.47,82.45,44,8,3.76,BR,2020-03-01 18:17:22,clear sky,0.0,0.0
268,Beni,0.5,29.47,72.61,56,83,4.38,CD,2020-03-01 18:17:22,broken clouds,0.0,0.0
269,Pachino,36.72,15.09,59.0,76,1,3.36,IT,2020-03-01 18:17:22,clear sky,0.0,0.0
270,Angatuba,-23.49,-48.41,73.74,73,99,16.11,BR,2020-03-01 18:17:22,overcast clouds,0.0,0.0
271,Tasiilaq,65.61,-37.64,21.2,85,100,4.7,GL,2020-03-01 18:12:50,light snow,0.0,0.0
272,Arman,59.7,150.17,9.72,77,0,5.46,RU,2020-03-01 18:17:23,clear sky,0.0,0.0
273,Bow Island,49.87,-111.37,24.01,85,90,6.93,CA,2020-03-01 18:13:22,overcast clouds,0.0,0.0
274,Kaeo,-35.1,173.78,70.0,100,100,15.9,NZ,2020-03-01 18:17:23,light rain,0.25,0.0
275,Severo-Kurilsk,50.68,156.12,19.13,92,98,4.72,RU,2020-03-01 18:13:03,light snow,0.0,0.25
276,Kristiansand,58.15,8.0,43.0,93,75,23.04,NO,2020-03-01 18:17:23,light intensity shower rain,0.0,0.0
277,Half Moon Bay,37.46,-122.43,54.0,71,20,11.41,US,2020-03-01 18:17:24,haze,0.0,0.0
278,Chipinge,-20.19,32.62,60.98,90,40,5.86,ZW,2020-03-01 18:16:49,scattered clouds,0.0,0.0
279,Itacarambi,-15.1,-44.09,84.85,66,73,0.94,BR,2020-03-01 18:17:25,broken clouds,0.0,0.0
280,Nantucket,41.28,-70.1,35.01,37,1,13.87,US,2020-03-01 18:15:43,clear sky,0.0,0.0
281,Constitucion,-35.33,-72.42,66.36,68,12,7.92,CL,2020-03-01 18:13:30,few clouds,0.0,0.0
282,Pisco,-13.7,-76.22,75.99,30,71,8.05,PE,2020-03-01 18:17:25,haze,0.0,0.0
283,Inhambane,-23.86,35.38,77.0,61,40,5.82,MZ,2020-03-01 18:17:25,scattered clouds,0.0,0.0
284,Kutum,14.2,24.67,68.99,14,0,7.61,SD,2020-03-01 18:17:25,clear sky,0.0,0.0
285,Barra Patuca,15.8,-84.28,78.1,74,90,12.46,HN,2020-03-01 18:17:26,light rain,0.25,0.0
286,Hambantota,6.12,81.12,79.75,81,28,15.1,LK,2020-03-01 18:13:09,scattered clouds,0.0,0.0
287,Carutapera,-1.2,-46.02,83.03,74,1,10.76,BR,2020-03-01 18:17:26,clear sky,0.0,0.0
288,Sioux Lookout,50.1,-91.92,32.0,95,90,10.29,CA,2020-03-01 18:13:25,light snow,0.0,0.0
289,Karratha,-20.74,116.85,86.74,75,3,7.31,AU,2020-03-01 18:17:26,clear sky,0.0,0.0
290,Shasta Lake,40.68,-122.37,53.6,27,1,27.51,US,2020-03-01 18:17:26,clear sky,0.0,0.0
291,Slave Lake,55.28,-114.77,15.8,85,75,8.05,CA,2020-03-01 18:13:21,broken clouds,0.0,0.0
292,Kidal,18.44,1.41,78.87,7,0,4.18,ML,2020-03-01 18:17:27,clear sky,0.0,0.0
293,Hualmay,-11.1,-77.61,81.21,58,90,11.77,PE,2020-03-01 18:17:27,overcast clouds,0.0,0.0
294,Amalapuram,16.58,82.02,71.6,85,48,1.3,IN,2020-03-01 18:17:27,scattered clouds,0.0,0.0
295,Ngerengere,-6.75,38.12,75.2,100,75,1.95,TZ,2020-03-01 18:17:27,broken clouds,0.0,0.0
296,Mareeba,-17.0,145.43,78.8,78,75,5.82,AU,2020-03-01 18:17:27,broken clouds,0.0,0.0
297,Amuntai,-2.42,115.25,75.16,93,100,1.41,ID,2020-03-01 18:17:27,light rain,0.25,0.0
298,Suntar,62.14,117.63,-4.68,98,95,4.07,RU,2020-03-01 18:17:27,overcast clouds,0.0,0.0
299,Ghanzi,-21.57,21.78,67.66,85,100,9.69,BW,2020-03-01 18:16:57,light rain,1.87,0.0
300,Namatanai,-3.67,152.43,83.39,76,17,7.63,PG,2020-03-01 18:17:28,light rain,2.81,0.0
301,Paramonga,-10.67,-77.83,72.41,87,100,11.1,PE,2020-03-01 18:17:28,overcast clouds,0.0,0.0
302,Bathsheba,13.22,-59.52,84.2,62,40,17.22,BB,2020-03-01 18:17:28,shower rain,0.0,0.0
303,Mmabatho,-25.85,25.63,68.0,60,75,5.82,ZA,2020-03-01 18:17:28,broken clouds,0.0,0.0
304,Makakilo City,21.35,-158.09,71.6,88,75,9.17,US,2020-03-01 18:17:28,light intensity drizzle,0.0,0.0
305,Ilulissat,69.22,-51.1,-11.2,47,20,3.36,GL,2020-03-01 18:12:50,few clouds,0.0,0.0
306,Luanda,-8.84,13.23,82.4,69,75,6.93,AO,2020-03-01 18:17:29,broken clouds,0.0,0.0
307,Hasaki,35.73,140.83,48.99,70,75,13.87,JP,2020-03-01 18:13:10,light rain,0.0,0.0
308,Jeremie,18.65,-74.12,67.6,95,100,8.3,HT,2020-03-01 18:12:44,light rain,2.19,0.0
309,Salinopolis,-0.61,-47.36,81.73,79,1,12.12,BR,2020-03-01 18:17:29,clear sky,0.0,0.0
310,Santa Rosa,14.31,121.11,78.8,69,20,5.82,PH,2020-03-01 18:17:29,few clouds,0.0,0.0
311,Forecariah,9.43,-13.09,89.24,40,0,6.93,GN,2020-03-01 18:17:29,clear sky,0.0,0.0
312,Grootfontein,-19.57,18.12,66.74,79,99,10.22,NA,2020-03-01 18:17:30,light rain,0.13,0.0
313,Excelsior Springs,39.34,-94.23,64.0,51,1,8.05,US,2020-03-01 18:12:44,clear sky,0.0,0.0
314,West Wendover,40.74,-114.07,30.2,86,90,4.7,US,2020-03-01 18:17:30,light snow,0.0,0.0
315,Mumford,5.26,-0.76,85.64,68,62,10.22,GH,2020-03-01 18:17:31,broken clouds,0.0,0.0
316,Panama City,8.99,-79.52,91.4,52,40,14.99,PA,2020-03-01 18:16:45,scattered clouds,0.0,0.0
317,Liaozhong,41.51,122.72,26.6,92,40,4.47,CN,2020-03-01 18:17:32,scattered clouds,0.0,0.0
318,Clyde River,70.47,-68.59,-27.4,74,20,2.24,CA,2020-03-01 18:17:32,few clouds,0.0,0.0
319,Kanigoro,-8.13,112.22,73.99,93,99,4.81,ID,2020-03-01 18:17:32,overcast clouds,0.0,0.0
320,Champerico,14.3,-91.92,89.6,62,40,9.17,GT,2020-03-01 18:17:32,scattered clouds,0.0,0.0
321,Ballina,-28.87,153.57,72.0,100,20,5.79,AU,2020-03-01 18:17:32,few clouds,0.0,0.0
322,Sao Filipe,14.9,-24.5,74.71,55,4,17.25,CV,2020-03-01 18:17:32,clear sky,0.0,0.0
323,Kovernino,57.13,43.81,31.01,86,98,11.95,RU,2020-03-01 18:13:21,overcast clouds,0.0,0.0
324,Taltal,-25.4,-70.48,68.23,69,4,8.34,CL,2020-03-01 18:17:33,clear sky,0.0,0.0
325,Ambajogai,18.73,76.38,73.9,54,34,4.27,IN,2020-03-01 18:17:33,light rain,0.19,0.0
326,Padang,-0.95,100.35,69.17,88,100,5.23,ID,2020-03-01 18:17:33,overcast clouds,0.0,0.0
327,Longyearbyen,78.22,15.64,-4.0,76,20,6.93,SJ,2020-03-01 18:17:33,few clouds,0.0,0.0
328,Kerman,30.28,57.08,55.4,15,0,4.7,IR,2020-03-01 18:17:33,clear sky,0.0,0.0
329,Airai,-8.93,125.41,68.07,83,100,5.5,TL,2020-03-01 18:17:33,overcast clouds,0.0,0.0
330,General Roca,-39.03,-67.58,96.8,28,20,2.24,AR,2020-03-01 18:17:34,few clouds,0.0,0.0
331,Olinda,-8.01,-34.86,86.0,66,40,13.87,BR,2020-03-01 18:17:34,scattered clouds,0.0,0.0
332,Rosiori,44.8,27.38,48.0,68,75,8.05,RO,2020-03-01 18:14:47,broken clouds,0.0,0.0
333,Gravdal,68.12,13.5,26.6,62,20,13.87,NO,2020-03-01 18:17:34,few clouds,0.0,0.0
334,Sao Felix Do Xingu,-6.64,-51.99,84.67,78,100,2.3,BR,2020-03-01 18:17:34,light rain,0.81,0.0
335,Aleysk,52.49,82.78,27.39,98,91,6.35,RU,2020-03-01 18:17:34,overcast clouds,0.0,0.0
336,Aracuai,-16.85,-42.07,83.37,64,71,1.81,BR,2020-03-01 18:17:34,light rain,1.19,0.0
337,Road Town,18.42,-64.62,82.4,69,20,5.82,VG,2020-03-01 18:17:35,few clouds,0.0,0.0
338,Foix,42.83,1.58,57.0,79,74,3.36,FR,2020-03-01 18:17:35,light rain,0.13,0.0
339,Puerto Del Rosario,28.5,-13.86,69.8,72,75,12.75,ES,2020-03-01 18:17:35,broken clouds,0.0,0.0
340,Kahama,-3.83,32.6,67.98,91,100,5.23,TZ,2020-03-01 18:17:35,light rain,0.81,0.0
341,Broome,42.25,-75.83,37.99,54,20,10.29,US,2020-03-01 18:17:35,light snow,0.0,0.0
342,Chaozhou,23.67,116.64,68.0,94,75,11.18,CN,2020-03-01 18:17:35,mist,0.0,0.0
343,Mount Gambier,-37.83,140.77,51.8,81,76,12.75,AU,2020-03-01 18:17:36,broken clouds,0.0,0.0
344,Oktyabrskiy,54.48,53.47,20.53,89,74,5.99,RU,2020-03-01 18:17:36,broken clouds,0.0,0.0
345,Castle Rock,39.37,-104.86,48.99,38,90,8.05,US,2020-03-01 18:12:51,overcast clouds,0.0,0.0
346,Ateli,28.1,76.28,62.51,70,52,1.86,IN,2020-03-01 18:17:36,broken clouds,0.0,0.0
347,Jamsa,61.86,25.19,33.01,85,90,9.17,FI,2020-03-01 18:17:36,light snow,0.0,0.0
348,Lamu,-2.27,40.9,82.85,83,40,14.99,KE,2020-03-01 18:17:36,scattered clouds,0.0,0.0
349,Mehamn,71.04,27.85,24.8,78,87,13.87,NO,2020-03-01 18:16:41,overcast clouds,0.0,0.0
350,Paka,4.64,103.44,75.04,87,70,4.72,MY,2020-03-01 18:17:37,broken clouds,0.0,0.0
351,Usinsk,65.99,57.53,14.83,92,93,13.38,RU,2020-03-01 18:17:37,overcast clouds,0.0,0.0
352,Faanui,-16.48,-151.75,81.75,80,97,26.46,PF,2020-03-01 18:13:32,light rain,1.0,0.0
353,Verkhniy Landekh,56.84,42.6,31.89,91,100,14.94,RU,2020-03-01 18:12:53,overcast clouds,0.0,0.0
354,Ayan,56.45,138.17,2.93,67,0,4.09,RU,2020-03-01 18:13:03,clear sky,0.0,0.0
355,Waingapu,-9.66,120.26,83.25,78,100,19.04,ID,2020-03-01 18:17:37,light rain,1.06,0.0
356,Alyangula,-13.85,136.42,82.4,88,81,4.7,AU,2020-03-01 18:13:32,light rain,0.56,0.0
357,Chikmagalur,13.32,75.78,73.62,70,90,3.4,IN,2020-03-01 18:17:38,light rain,0.94,0.0
358,Homer,59.64,-151.55,30.2,86,90,4.7,US,2020-03-01 18:17:38,light snow,0.0,0.0
359,Fort Nelson,58.81,-122.7,5.0,71,75,6.93,CA,2020-03-01 18:17:38,broken clouds,0.0,0.0
360,Chokurdakh,70.63,147.92,-5.44,90,8,11.12,RU,2020-03-01 18:17:38,clear sky,0.0,0.0
361,Oktyabrskoye,43.06,44.74,33.8,100,90,2.24,RU,2020-03-01 18:17:38,overcast clouds,0.0,0.0
362,Kapit,2.02,112.93,73.09,99,100,0.78,MY,2020-03-01 18:17:38,overcast clouds,0.0,0.0
363,Moron,-34.65,-58.62,97.0,41,0,4.7,AR,2020-03-01 18:17:38,clear sky,0.0,0.0
364,Tecoanapa,16.52,-98.75,94.77,33,0,8.32,MX,2020-03-01 18:17:39,clear sky,0.0,0.0
365,Mango,27.98,-82.31,72.0,32,1,9.17,US,2020-03-01 18:17:39,clear sky,0.0,0.0
366,Asau,46.43,26.4,48.2,62,94,12.75,RO,2020-03-01 18:15:02,overcast clouds,0.0,0.0
367,Juneau,58.3,-134.42,35.6,86,90,25.28,US,2020-03-01 18:17:39,moderate rain,0.0,0.0
368,Dukhovshchina,55.19,32.41,35.24,96,100,12.26,RU,2020-03-01 18:13:35,light rain,0.25,0.0
369,Anadyr,64.75,177.48,-11.0,76,0,15.66,RU,2020-03-01 18:12:59,clear sky,0.0,0.0
370,Tilichiki,60.47,166.1,-9.54,87,0,7.05,RU,2020-03-01 18:12:59,clear sky,0.0,0.0
371,Oranjemund,-28.55,16.43,68.67,80,0,8.48,NA,2020-03-01 18:17:40,clear sky,0.0,0.0
372,Portland,45.52,-122.68,41.0,80,90,3.36,US,2020-03-01 18:17:40,light rain,0.0,0.0
373,Kruisfontein,-34.0,24.73,67.32,85,0,6.08,ZA,2020-03-01 18:13:20,clear sky,0.0,0.0
374,Corcoran,36.1,-119.56,55.99,50,1,6.82,US,2020-03-01 18:14:16,clear sky,0.0,0.0
375,Almaznyy,48.04,40.05,39.2,51,0,6.71,RU,2020-03-01 18:13:43,clear sky,0.0,0.0
376,Kushiro,42.98,144.37,17.6,89,19,8.46,JP,2020-03-01 18:16:40,few clouds,0.0,0.0
377,Pryozerne,45.27,36.33,41.4,75,3,10.0,UA,2020-03-01 18:15:17,clear sky,0.0,0.0
378,Port-Cartier,50.03,-66.87,26.01,79,40,6.93,CA,2020-03-01 18:17:42,scattered clouds,0.0,0.0
379,Upernavik,72.79,-56.15,-25.37,83,0,3.2,GL,2020-03-01 18:17:42,clear sky,0.0,0.0
380,Ginda,30.69,78.49,45.84,65,0,4.72,IN,2020-03-01 18:17:43,clear sky,0.0,0.0
381,Khuzdar,27.74,66.64,60.24,37,4,4.79,PK,2020-03-01 18:17:43,clear sky,0.0,0.0
382,Hryshkivtsi,49.94,28.6,42.12,65,91,13.35,UA,2020-03-01 18:17:43,overcast clouds,0.0,0.0
383,Acapulco,16.86,-99.89,86.0,70,5,3.36,MX,2020-03-01 18:14:21,clear sky,0.0,0.0
384,Mirabad,30.44,61.84,66.25,21,0,3.98,AF,2020-03-01 18:17:44,clear sky,0.0,0.0
385,Husavik,66.04,-17.34,33.8,64,90,14.99,IS,2020-03-01 18:17:44,overcast clouds,0.0,0.0
386,Sobolevo,54.43,31.9,34.99,94,100,11.68,RU,2020-03-01 18:17:44,light snow,0.0,0.19
387,Waipawa,-41.41,175.52,59.0,87,100,3.36,NZ,2020-03-01 18:17:44,overcast clouds,0.0,0.0
388,Thinadhoo,0.53,72.93,82.9,79,49,10.49,MV,2020-03-01 18:15:05,light rain,0.25,0.0
389,Riyadh,24.69,46.72,75.2,25,0,3.36,SA,2020-03-01 18:13:06,clear sky,0.0,0.0
390,Bushehr,28.97,50.84,71.6,40,75,18.34,IR,2020-03-01 18:17:44,broken clouds,0.0,0.0
391,Tsaratanana,-16.78,47.65,71.04,89,57,2.17,MG,2020-03-01 18:17:45,light rain,1.75,0.0
392,Jumla,29.27,82.18,34.21,96,95,1.21,NP,2020-03-01 18:17:45,light snow,0.0,0.81
393,Kerema,-7.96,145.78,75.54,92,93,2.06,PG,2020-03-01 18:17:45,overcast clouds,0.0,0.0
394,Krasnoye,49.91,24.61,44.6,56,65,8.95,UA,2020-03-01 18:15:18,broken clouds,0.0,0.0
395,Porto Empedocle,37.29,13.53,57.99,67,33,2.1,IT,2020-03-01 18:17:46,scattered clouds,0.0,0.0
396,Port Hueneme,34.15,-119.2,60.8,41,90,9.17,US,2020-03-01 18:12:56,overcast clouds,0.0,0.0
397,Yenagoa,4.92,6.26,84.7,68,95,8.28,NG,2020-03-01 18:12:48,light rain,1.75,0.0
398,Saint-Joseph,-21.37,55.62,80.6,88,40,3.36,RE,2020-03-01 18:17:47,scattered clouds,0.0,0.0
399,Cranbrook,49.5,-115.77,35.6,43,20,3.36,CA,2020-03-01 18:17:47,few clouds,0.0,0.0
400,Adwa,14.16,38.9,68.27,38,80,7.52,ET,2020-03-01 18:17:47,broken clouds,0.0,0.0
401,Katsuura,35.13,140.3,50.0,81,75,12.75,JP,2020-03-01 18:17:47,light rain,0.0,0.0
402,Port Hedland,-20.32,118.57,80.6,88,4,4.7,AU,2020-03-01 18:13:33,clear sky,0.0,0.0
403,Kedrovyy,56.17,91.82,6.8,77,56,2.24,RU,2020-03-01 18:17:47,broken clouds,0.0,0.0
404,Yanam,16.73,82.22,71.6,85,48,1.3,IN,2020-03-01 18:13:03,scattered clouds,0.0,0.0
405,Arlon,49.68,5.82,46.99,93,75,12.75,BE,2020-03-01 18:17:48,light rain,0.0,0.0
406,Port Hardy,50.7,-127.42,39.2,86,90,8.05,CA,2020-03-01 18:17:48,overcast clouds,0.0,0.0
407,Ust-Ordynskiy,52.8,104.75,14.0,78,20,6.71,RU,2020-03-01 18:17:48,few clouds,0.0,0.0
408,Achutupo,9.2,-77.98,82.53,64,51,10.0,PA,2020-03-01 18:17:48,light rain,0.25,0.0
409,Palin,14.41,-90.7,87.8,49,40,16.11,GT,2020-03-01 18:17:48,scattered clouds,0.0,0.0
410,Poum,-20.23,164.02,82.4,82,100,14.52,NC,2020-03-01 18:17:48,light rain,0.44,0.0
411,San Blas,21.52,-105.27,80.6,42,5,5.46,MX,2020-03-01 18:17:49,clear sky,0.0,0.0
412,Bilibino,68.05,166.44,-17.25,100,100,1.34,RU,2020-03-01 18:12:59,overcast clouds,0.0,0.0
413,Phillaur,31.03,75.78,60.53,64,0,5.64,IN,2020-03-01 18:17:42,clear sky,0.0,0.0
414,Bengkulu,-3.8,102.27,73.06,93,100,3.53,ID,2020-03-01 18:17:49,light rain,0.81,0.0
415,Erenhot,43.65,111.98,23.05,55,93,15.03,CN,2020-03-01 18:13:13,overcast clouds,0.0,0.0
416,Lacey,47.03,-122.82,43.0,100,40,2.44,US,2020-03-01 18:17:49,scattered clouds,0.0,0.0
417,Kristiinankaupunki,62.27,21.38,29.03,94,100,12.3,FI,2020-03-01 18:17:50,snow,0.0,2.0
418,Cavalcante,-13.8,-47.46,73.06,80,100,1.05,BR,2020-03-01 18:17:50,light rain,0.13,0.0
419,Matay,28.42,30.78,58.12,39,0,9.71,EG,2020-03-01 18:17:50,clear sky,0.0,0.0
420,Belmonte,-15.86,-38.88,87.8,70,40,6.93,BR,2020-03-01 18:17:50,scattered clouds,0.0,0.0
421,Karoi,-16.81,29.69,64.65,93,38,2.8,ZW,2020-03-01 18:13:19,light rain,1.75,0.0
422,Maningrida,-12.07,134.27,84.16,78,100,8.79,AU,2020-03-01 18:17:51,light rain,0.94,0.0
423,Marystown,47.17,-55.15,28.78,89,100,25.72,CA,2020-03-01 18:17:51,light snow,0.0,0.75
424,Tambilil,5.96,124.67,78.28,83,74,3.96,PH,2020-03-01 18:17:51,light rain,2.13,0.0
425,Mazamari,-11.33,-74.53,63.81,98,100,1.21,PE,2020-03-01 18:17:51,light rain,0.87,0.0
426,Sao Joao Da Barra,-21.64,-41.05,78.8,83,90,23.04,BR,2020-03-01 18:17:52,light rain,0.0,0.0
427,Garowe,8.41,48.48,73.27,59,18,15.9,SO,2020-03-01 18:17:52,few clouds,0.0,0.0
428,Hojai,26.0,92.87,67.21,68,0,2.57,IN,2020-03-01 18:17:52,clear sky,0.0,0.0
429,Khash,28.22,61.22,59.2,30,0,7.74,IR,2020-03-01 18:13:07,clear sky,0.0,0.0
430,Lavrentiya,65.58,-171.0,-7.89,81,0,7.02,RU,2020-03-01 18:12:59,clear sky,0.0,0.0
431,Lebu,-37.62,-73.65,73.99,50,3,5.03,CL,2020-03-01 18:17:53,clear sky,0.0,0.0
432,Hemsedal,60.86,8.55,25.0,94,99,2.66,NO,2020-03-01 18:17:53,light snow,0.0,0.19
433,Kasane,-17.82,25.15,75.2,88,75,3.09,BW,2020-03-01 18:16:57,broken clouds,0.0,0.0
434,Port Macquarie,-31.43,152.92,68.0,100,40,8.34,AU,2020-03-01 18:17:53,scattered clouds,0.0,0.0
435,Yayva,59.33,57.26,24.01,61,99,5.01,RU,2020-03-01 18:12:54,light snow,0.0,0.13
436,Honiara,-9.43,159.95,78.8,100,20,3.96,SB,2020-03-01 18:17:53,few clouds,0.0,0.0
437,Mathbaria,22.29,89.96,67.64,73,0,5.5,BD,2020-03-01 18:14:01,clear sky,0.0,0.0
438,Yukamenskoye,57.89,52.24,17.78,91,26,11.34,RU,2020-03-01 18:17:54,scattered clouds,0.0,0.0
439,Guarapari,-20.67,-40.5,87.8,66,20,12.75,BR,2020-03-01 18:17:54,few clouds,0.0,0.0
440,Storforshei,66.4,14.52,8.6,84,20,2.24,NO,2020-03-01 18:17:54,few clouds,0.0,0.0
441,Codrington,-38.27,141.97,56.98,70,70,23.91,AU,2020-03-01 18:17:55,light rain,0.12,0.0
442,Hvolsvollur,63.75,-20.22,39.2,77,75,51.67,IS,2020-03-01 18:17:55,moderate rain,0.0,0.0
443,Senno,59.53,33.92,34.77,98,100,12.1,RU,2020-03-01 18:13:08,snow,0.0,1.81
444,Borujerd,33.9,48.75,37.71,76,22,14.32,IR,2020-03-01 18:17:56,light snow,0.0,0.88
445,Parga,39.28,20.4,57.2,76,20,3.2,GR,2020-03-01 18:17:56,few clouds,0.0,0.0
446,Kolondieba,11.09,-6.89,95.83,10,52,0.85,ML,2020-03-01 18:17:56,broken clouds,0.0,0.0
447,Alofi,-19.06,-169.92,75.2,100,26,4.7,NU,2020-03-01 18:13:32,light rain,0.13,0.0
448,Miram Shah,33.01,70.07,54.59,56,1,3.18,PK,2020-03-01 18:17:26,clear sky,0.0,0.0
449,Gat,31.61,34.76,57.2,76,40,4.7,IL,2020-03-01 18:17:56,scattered clouds,0.0,0.0
450,Seydi,39.48,62.91,58.06,46,0,7.38,TM,2020-03-01 18:17:35,clear sky,0.0,0.0
451,Kokopo,-4.35,152.26,84.13,73,46,5.35,PG,2020-03-01 18:17:57,light rain,0.19,0.0
452,Navrongo,10.9,-1.09,95.72,8,58,6.62,GH,2020-03-01 18:17:55,broken clouds,0.0,0.0
453,Baoding,38.85,115.49,36.55,28,39,1.07,CN,2020-03-01 18:13:14,scattered clouds,0.0,0.0
454,Tolmin,46.18,13.73,54.0,100,90,2.24,SI,2020-03-01 18:17:57,heavy intensity rain,0.0,0.0
455,Vao,-22.67,167.48,79.68,84,100,12.21,NC,2020-03-01 18:17:58,overcast clouds,0.0,0.0
456,Ambon,-3.7,128.18,78.8,88,40,4.7,ID,2020-03-01 18:16:51,scattered clouds,0.0,0.0
457,Coari,-4.08,-63.14,83.5,86,87,3.13,BR,2020-03-01 18:17:58,moderate rain,3.19,0.0
458,Canavieiras,-15.68,-38.95,87.8,70,40,6.93,BR,2020-03-01 18:17:58,scattered clouds,0.0,0.0
459,Golspie,57.97,-3.98,42.01,80,54,21.92,GB,2020-03-01 18:17:58,broken clouds,0.0,0.0
460,Banjar,-8.19,114.97,78.8,100,20,5.82,ID,2020-03-01 18:13:05,few clouds,0.0,0.0
461,Russellville,35.28,-93.13,66.2,67,90,12.75,US,2020-03-01 18:17:59,overcast clouds,0.0,0.0
462,Krasnovka,48.82,40.09,35.33,65,15,6.8,RU,2020-03-01 18:15:40,few clouds,0.0,0.0
463,Amahai,-3.33,128.92,83.43,79,100,3.33,ID,2020-03-01 18:13:34,light rain,1.0,0.0
464,Winnemucca,40.97,-117.74,33.8,59,1,11.41,US,2020-03-01 18:17:59,clear sky,0.0,0.0
465,Manggar,-2.88,108.27,82.26,83,86,14.54,ID,2020-03-01 18:16:54,overcast clouds,0.0,0.0
466,Kurumkan,54.3,110.3,1.4,69,69,3.47,RU,2020-03-01 18:18:00,broken clouds,0.0,0.0
467,Atambua,-9.11,124.89,76.69,84,99,1.57,ID,2020-03-01 18:13:34,overcast clouds,0.0,0.0
468,Coolum Beach,-26.53,153.1,70.0,94,2,2.04,AU,2020-03-01 18:15:00,clear sky,0.0,0.0
469,Coos Bay,43.37,-124.22,46.0,86,1,4.79,US,2020-03-01 18:18:00,clear sky,0.0,0.0
470,Saint George,37.1,-113.58,53.6,46,1,8.05,US,2020-03-01 18:18:00,clear sky,0.0,0.0
471,Bucerias,20.75,-105.33,81.0,57,5,6.93,MX,2020-03-01 18:18:00,clear sky,0.0,0.0
472,Florianopolis,-27.61,-48.5,81.0,65,40,14.99,BR,2020-03-01 18:18:00,scattered clouds,0.0,0.0
473,Chhatapur,26.22,87.02,72.36,40,0,4.25,IN,2020-03-01 18:18:01,clear sky,0.0,0.0
474,Bhinga,27.72,81.93,68.0,45,17,1.99,IN,2020-03-01 18:18:01,few clouds,0.0,0.0
475,Tarnobrzeg,50.57,21.68,45.0,70,97,14.99,PL,2020-03-01 18:15:41,overcast clouds,0.0,0.0
476,Yakhroma,56.3,37.48,41.0,56,90,15.66,RU,2020-03-01 18:18:01,overcast clouds,0.0,0.0
477,Cheremisinovo,51.89,37.26,39.2,64,100,11.18,RU,2020-03-01 18:18:01,overcast clouds,0.0,0.0
478,Tsurib,42.24,46.83,9.36,84,77,3.94,RU,2020-03-01 18:18:01,broken clouds,0.0,0.0
479,Praia,14.92,-23.51,78.8,50,36,21.92,CV,2020-03-01 18:18:01,scattered clouds,0.0,0.0
480,Khorixas,-20.37,14.97,71.47,43,69,12.24,NA,2020-03-01 18:18:02,broken clouds,0.0,0.0
481,Pafos,34.77,32.42,59.0,76,40,5.82,CY,2020-03-01 18:18:02,scattered clouds,0.0,0.0
482,Port-Gentil,-0.72,8.78,84.2,89,40,8.05,GA,2020-03-01 18:13:19,scattered clouds,0.0,0.0
483,Santa Cruz,-17.8,-63.17,93.2,34,14,11.41,BO,2020-03-01 18:13:30,few clouds,0.0,0.0
484,Bayir,37.27,28.22,46.4,81,0,6.93,TR,2020-03-01 18:18:02,clear sky,0.0,0.0
485,Manacapuru,-3.3,-60.62,87.8,66,40,6.93,BR,2020-03-01 18:18:02,scattered clouds,0.0,0.0
486,Bahawalnagar,30.55,73.39,61.59,62,0,6.04,PK,2020-03-01 18:18:03,clear sky,0.0,0.0
487,Ostrovnoy,68.05,39.51,7.09,77,97,7.07,RU,2020-03-01 18:18:03,overcast clouds,0.0,0.0
488,Raga,8.46,25.68,80.89,14,82,5.82,SS,2020-03-01 18:18:03,broken clouds,0.0,0.0
489,Verkhniy Uslon,55.77,48.98,26.6,73,28,8.95,RU,2020-03-01 18:18:03,scattered clouds,0.0,0.0
490,Nelson Bay,-32.72,152.15,73.99,88,70,3.38,AU,2020-03-01 18:18:03,broken clouds,0.0,0.0
491,Alice Springs,-23.7,133.88,77.0,57,90,8.05,AU,2020-03-01 18:13:33,overcast clouds,0.0,0.0
492,San Quintin,30.48,-115.95,59.41,67,100,8.19,MX,2020-03-01 18:18:04,overcast clouds,0.0,0.0
493,Kudahuvadhoo,2.67,72.89,82.71,73,39,7.45,MV,2020-03-01 18:18:04,scattered clouds,0.0,0.0
494,Ejura,7.39,-1.36,96.71,17,0,3.67,GH,2020-03-01 18:18:04,clear sky,0.0,0.0
495,Orodara,10.95,-4.93,96.8,28,93,3.36,BF,2020-03-01 18:18:04,overcast clouds,0.0,0.0
496,Miedzyrzec Podlaski,51.99,22.78,43.68,74,83,11.97,PL,2020-03-01 18:18:04,broken clouds,0.0,0.0
497,Kisangani,0.52,25.2,76.21,85,100,9.62,CD,2020-03-01 18:18:04,light rain,2.0,0.0
498,Buloh Kasap,2.55,102.76,71.85,94,61,1.23,MY,2020-03-01 18:18:05,broken clouds,0.0,0.0
499,Altayskoye,51.95,85.33,25.92,84,18,5.03,RU,2020-03-01 18:18:05,few clouds,0.0,0.0
500,Vicksburg,32.35,-90.88,69.8,26,1,16.11,US,2020-03-01 18:18:05,clear sky,0.0,0.0
501,Roebourne,-20.78,117.13,91.53,45,20,1.28,AU,2020-03-01 18:18:05,few clouds,0.0,0.0
502,Rocha,-34.48,-54.33,87.57,31,0,13.02,UY,2020-03-01 18:13:31,clear sky,0.0,0.0
503,Shimoda,34.67,138.95,44.01,91,100,3.0,JP,2020-03-01 18:13:11,light rain,2.62,0.0
504,Allapalli,19.42,80.07,74.43,52,0,2.3,IN,2020-03-01 18:18:04,clear sky,0.0,0.0
505,San Julian,21.02,-102.17,78.75,22,0,8.43,MX,2020-03-01 18:18:06,clear sky,0.0,0.0
506,Shingu,33.73,135.98,56.14,87,100,12.35,JP,2020-03-01 18:18:06,light rain,2.06,0.0
507,Hobyo,5.35,48.53,76.77,76,0,15.1,SO,2020-03-01 18:18:06,clear sky,0.0,0.0
508,Tshikapa,-6.42,20.8,77.04,76,86,2.17,CD,2020-03-01 18:18:06,overcast clouds,0.0,0.0
509,Mopti,14.67,-4.0,95.0,6,5,13.87,ML,2020-03-01 18:18:07,clear sky,0.0,0.0
510,Lere,10.39,8.57,85.32,14,55,5.84,NG,2020-03-01 18:18:07,broken clouds,0.0,0.0
511,Bria,6.54,21.99,83.01,18,79,1.92,CF,2020-03-01 18:18:07,broken clouds,0.0,0.0
512,Mackenzie,55.3,-123.17,23.0,85,90,17.22,CA,2020-03-01 18:18:07,overcast clouds,0.0,0.0
513,Bay-Khaak,51.17,94.5,7.88,87,9,4.29,RU,2020-03-01 18:18:07,clear sky,0.0,0.0
514,The Valley,18.22,-63.06,84.2,61,20,11.41,AI,2020-03-01 18:18:07,few clouds,0.0,0.0
515,Muros,42.78,-9.06,57.0,93,90,13.87,ES,2020-03-01 18:18:07,moderate rain,0.0,0.0
516,Xining,36.62,101.77,26.01,61,99,2.24,CN,2020-03-01 18:18:07,overcast clouds,0.0,0.0
517,Fort Abbas,29.19,72.85,69.08,45,0,10.18,PK,2020-03-01 18:18:08,clear sky,0.0,0.0
518,Taoudenni,22.68,-3.98,84.54,7,0,9.31,ML,2020-03-01 18:18:08,clear sky,0.0,0.0
519,Payo,-3.75,103.64,68.02,96,100,4.52,ID,2020-03-01 18:18:08,moderate rain,3.19,0.0
520,Whitehorse,60.72,-135.05,26.6,73,75,14.99,CA,2020-03-01 18:16:41,broken clouds,0.0,0.0
521,Port Lincoln,-34.73,135.87,60.87,77,96,21.9,AU,2020-03-01 18:13:33,light rain,0.13,0.0
522,Hay River,60.82,-115.8,3.2,59,75,12.75,CA,2020-03-01 18:13:26,broken clouds,0.0,0.0
523,Rundu,-17.93,19.77,80.6,39,100,3.36,NA,2020-03-01 18:18:08,overcast clouds,0.0,0.0
524,Zhigansk,66.77,123.37,-10.75,98,80,5.88,RU,2020-03-01 18:18:09,broken clouds,0.0,0.0
525,Gondar,12.6,37.47,66.69,24,49,11.39,ET,2020-03-01 18:18:09,scattered clouds,0.0,0.0
526,Aromashevo,56.86,68.64,29.01,97,100,5.23,RU,2020-03-01 18:18:09,light snow,0.0,0.5
527,Hovd,48.01,91.64,15.13,69,0,1.48,MN,2020-03-01 18:18:09,clear sky,0.0,0.0
528,Puerto Santander,8.36,-72.41,84.2,62,40,6.93,CO,2020-03-01 18:18:09,scattered clouds,0.0,0.0
529,Kunming,25.04,102.72,54.0,57,0,8.95,CN,2020-03-01 18:18:10,clear sky,0.0,0.0
530,Ketchikan,55.34,-131.65,37.4,93,90,20.8,US,2020-03-01 18:18:10,moderate rain,0.0,0.0
531,Kolobrzeg,54.18,15.58,43.0,77,96,12.26,PL,2020-03-01 18:18:10,light rain,0.19,0.0
532,Jibuti,11.5,42.5,78.8,74,1,10.27,DJ,2020-03-01 18:17:02,clear sky,0.0,0.0
533,Rodrigues Alves,-7.74,-72.65,78.8,94,90,6.93,BR,2020-03-01 18:18:10,light rain,0.0,0.0
534,Tautira,-17.73,-149.15,78.01,94,75,25.28,PF,2020-03-01 18:18:10,heavy intensity rain,0.0,0.0
535,Fairbanks,64.84,-147.72,10.99,77,75,3.13,US,2020-03-01 18:17:55,light snow,0.0,0.0
536,Lieksa,63.32,30.02,28.31,97,100,7.54,FI,2020-03-01 18:18:11,light snow,0.0,1.06
537,Cervo,43.67,-7.41,52.0,1,100,4.0,ES,2020-03-01 18:18:11,light rain,0.5,0.0
538,Camacha,33.08,-16.33,68.0,88,40,12.75,PT,2020-03-01 18:18:11,scattered clouds,0.0,0.0
539,Mayaky,47.44,29.56,42.8,69,97,18.12,UA,2020-03-01 18:15:09,overcast clouds,0.0,0.0
540,Bestobe,52.5,73.1,29.37,74,100,7.47,KZ,2020-03-01 18:18:12,overcast clouds,0.0,0.0
541,Antofagasta,-23.65,-70.4,72.0,64,20,13.87,CL,2020-03-01 18:15:29,few clouds,0.0,0.0
542,Bubaque,11.28,-15.83,81.48,72,37,15.88,GW,2020-03-01 18:18:13,scattered clouds,0.0,0.0
543,Lasa,46.62,10.7,41.0,92,90,5.82,IT,2020-03-01 18:18:13,light snow,0.0,0.0
544,Qingdao,36.1,120.37,35.01,92,3,2.24,CN,2020-03-01 18:18:14,mist,0.0,0.0
545,Shitanjing,39.23,106.34,31.19,33,48,0.85,CN,2020-03-01 18:18:14,scattered clouds,0.0,0.0
546,Aksarka,66.56,67.8,16.41,92,43,13.38,RU,2020-03-01 18:18:15,scattered clouds,0.0,0.0
547,Srandakan,-7.94,110.25,75.4,89,100,3.47,ID,2020-03-01 18:18:15,overcast clouds,0.0,0.0
548,Banda Aceh,5.56,95.32,74.16,91,78,5.3,ID,2020-03-01 18:13:56,broken clouds,0.0,0.0
549,Asyut,27.18,31.18,60.8,48,0,11.41,EG,2020-03-01 18:18:15,clear sky,0.0,0.0
550,Liverpool,53.41,-2.98,44.6,65,40,11.41,GB,2020-03-01 18:18:15,shower rain,0.0,0.0
551,Verkh-Usugli,52.7,115.17,7.34,88,99,2.73,RU,2020-03-01 18:18:15,overcast clouds,0.0,0.0
552,Karasjok,69.47,25.51,10.4,85,100,13.87,NO,2020-03-01 18:18:15,overcast clouds,0.0,0.0
553,Tutoia,-2.76,-42.27,87.8,70,40,11.41,BR,2020-03-01 18:18:16,scattered clouds,0.0,0.0
554,La Roche-Sur-Yon,46.67,-1.43,51.8,87,68,9.17,FR,2020-03-01 18:18:16,light rain,0.13,0.0
555,Pauini,-7.71,-66.98,79.16,90,100,5.75,BR,2020-03-01 18:18:16,light rain,2.5,0.0
556,Kharp,66.8,65.81,6.82,99,99,4.76,RU,2020-03-01 18:18:15,overcast clouds,0.0,0.0
557,Grand Gaube,-20.01,57.66,80.6,88,40,6.89,MU,2020-03-01 18:13:18,scattered clouds,0.0,0.0
558,Mweka,-4.85,21.57,77.0,80,94,8.21,CD,2020-03-01 18:18:17,light rain,1.38,0.0
559,San Isidro,-12.12,-77.05,80.6,65,53,14.99,PE,2020-03-01 18:18:17,broken clouds,0.0,0.0
560,Madimba,-10.4,40.33,82.4,83,40,9.13,TZ,2020-03-01 18:18:17,scattered clouds,0.0,0.0
561,Tacuarembo,-31.73,-55.98,91.83,22,0,6.42,UY,2020-03-01 18:18:17,clear sky,0.0,0.0
562,Zyryanka,65.75,150.85,-2.0,82,0,1.9,RU,2020-03-01 18:18:17,clear sky,0.0,0.0
563,Moosomin,50.13,-101.67,20.66,88,99,23.94,CA,2020-03-01 18:18:17,light snow,0.0,0.25
564,Vila Velha,-20.33,-40.29,87.8,66,20,12.75,BR,2020-03-01 18:17:04,few clouds,0.0,0.0
565,Lata,40.16,-8.33,61.0,93,75,16.11,PT,2020-03-01 18:18:18,light rain,0.0,0.0
566,San Felipe,10.34,-68.74,86.41,48,79,10.16,VE,2020-03-01 18:17:58,broken clouds,0.0,0.0
567,Ambilobe,-13.2,49.05,77.05,93,30,5.41,MG,2020-03-01 18:13:35,light rain,0.25,0.0
568,Saint-Denis,48.92,2.33,41.0,93,75,6.93,FR,2020-03-01 18:18:18,broken clouds,0.0,0.0
569,High Rock,26.62,-78.28,69.8,52,20,16.11,BS,2020-03-01 18:18:18,few clouds,0.0,0.0
570,Broken Hill,-31.95,141.43,71.6,49,99,13.87,AU,2020-03-01 18:18:18,overcast clouds,0.0,0.0
571,Puerto Maldonado,-12.6,-69.18,93.54,34,58,7.09,PE,2020-03-01 18:16:39,broken clouds,0.0,0.0
572,Maniwaki,46.38,-75.97,22.89,72,60,2.35,CA,2020-03-01 18:18:19,broken clouds,0.0,0.0
573,Victoria,22.29,114.16,73.0,78,19,2.24,HK,2020-03-01 18:13:40,few clouds,0.0,0.0
574,Zabaykalsk,49.63,117.32,-0.6,96,44,1.25,RU,2020-03-01 18:18:19,scattered clouds,0.0,0.0
575,Yashkul,46.17,45.34,40.3,63,38,5.23,RU,2020-03-01 18:18:20,scattered clouds,0.0,0.0
576,Staryy Nadym,65.61,72.68,17.26,89,1,12.57,RU,2020-03-01 18:18:20,clear sky,0.0,0.0
577,Nyurba,63.28,118.33,-8.1,98,93,4.0,RU,2020-03-01 18:18:20,overcast clouds,0.0,0.0
578,Sakaide,34.32,133.85,46.99,82,100,3.33,JP,2020-03-01 18:18:21,overcast clouds,0.0,0.0
579,Boca Do Acre,-8.75,-67.4,75.06,95,100,2.46,BR,2020-03-01 18:18:21,light rain,1.88,0.0
580,Garissa,-0.45,39.64,93.06,38,94,5.23,KE,2020-03-01 18:18:21,overcast clouds,0.0,0.0
581,Chicama,-7.84,-79.15,75.2,78,90,9.17,PE,2020-03-01 18:18:21,overcast clouds,0.0,0.0
582,Lichuan,30.3,108.85,44.58,80,98,4.83,CN,2020-03-01 18:18:22,light rain,0.25,0.0
583,Soyo,-6.13,12.37,84.2,74,86,5.82,AO,2020-03-01 18:18:22,overcast clouds,0.0,0.0
584,Okato,-39.2,173.88,68.0,75,100,8.99,NZ,2020-03-01 18:18:22,overcast clouds,0.0,0.0
585,Hanmer Springs,-42.52,172.82,55.24,69,100,2.84,NZ,2020-03-01 18:18:22,overcast clouds,0.0,0.0
586,Rudnogorsk,57.26,103.75,0.9,96,0,3.2,RU,2020-03-01 18:18:22,clear sky,0.0,0.0
587,Caceres,39.52,-6.37,57.99,83,95,10.0,ES,2020-03-01 18:18:22,light rain,1.13,0.0
588,Salalah,17.02,54.09,77.0,73,75,4.7,OM,2020-03-01 18:18:22,broken clouds,0.0,0.0
589,Jiangkou,25.49,119.2,55.4,87,90,13.42,CN,2020-03-01 18:18:23,overcast clouds,0.0,0.0
590,Coquimbo,-29.95,-71.34,68.0,68,40,11.41,CL,2020-03-01 18:18:23,scattered clouds,0.0,0.0
591,Praia Da Vitoria,38.73,-27.07,66.2,77,75,22.3,PT,2020-03-01 18:18:23,light rain,0.0,0.0
592,Mananjary,-21.22,48.33,77.07,84,8,17.27,MG,2020-03-01 18:18:23,light rain,1.38,0.0
593,Vikhorevka,56.12,101.16,5.0,84,56,4.47,RU,2020-03-01 18:18:23,broken clouds,0.0,0.0
594,Muskegon,43.3,-86.13,51.8,45,75,25.28,US,2020-03-01 18:18:23,broken clouds,0.0,0.0
595,Jieshi,22.81,115.83,72.0,72,26,1.01,CN,2020-03-01 18:18:24,scattered clouds,0.0,0.0
596,Xam Nua,20.42,104.04,62.29,98,45,3.11,LA,2020-03-01 18:18:24,light rain,0.13,0.0
597,Berezovka,53.72,25.5,38.26,88,100,9.55,BY,2020-03-01 18:18:24,overcast clouds,0.0,0.0
598,Kayes,14.0,-11.0,100.89,4,1,8.9,ML,2020-03-01 18:18:24,clear sky,0.0,0.0
599,Blagoyevo,63.37,47.92,17.47,87,89,8.9,RU,2020-03-01 18:13:43,overcast clouds,0.0,0.0
